{
  "venues": [
    {
      "id": "5137c5afe4b097f9ccc87832",
      "name": "SUGARFISH by sushi nozawa",
      "review": "Bathrooms are clean. Staff is friendly. Will pee here again.",
      "location": {
        "address": "212 N Canon Dr",
        "crossStreet": "at Clifton Way",
        "lat": 34.068183045049516,
        "lng": -118.39850984469638,
        "formattedAddress": [
          "212 N Canon Dr (at Clifton Way)",
          "Beverly Hills, CA 90210",
          "United States"
        ]
      }
    },
    {
      "id": "3fd66200f964a520cfee1ee3",
      "name": "Lawry's The Prime Rib",
      "review": "Bathrooms are clean. Staff is friendly. Will pee here again.",
      "location": {
        "address": "100 N La Cienega Blvd",
        "lat": 34.06788677381877,
        "lng": -118.37612208798915,
        "formattedAddress": [
          "100 N La Cienega Blvd",
          "Beverly Hills, CA 90211",
          "United States"
        ]
      }
    },

    {
      "id": "4161e400f964a520631d1fe3",
      "name": "Urth Caffé",
      "review": "Bathrooms are clean. Staff is friendly. Will pee here again.",
      "location": {
        "address": "267 S Beverly Dr",
        "crossStreet": "at Gregory Way",
        "lat": 34.06262037220222,
        "lng": -118.39920632161245,
        "postalCode": "90212",
        "cc": "US",
        "city": "Beverly Hills",
        "state": "CA",
        "country": "United States",
        "formattedAddress": [
          "267 S Beverly Dr (at Gregory Way)",
          "Beverly Hills, CA 90212",
          "United States"
        ]
      }
    },
    {
      "id": "3fd66200f964a520cbee1ee3",
      "name": "Il Pastaio",
      "review": "Bathrooms are clean. Staff is friendly. Will pee here again.",
      "location": {
        "address": "400 N Canon Dr",
        "crossStreet": "at Brighton Way",
        "lat": 34.07073918796388,
        "lng": -118.40080037177384,
        "postalCode": "90210",
        "cc": "US",
        "city": "Beverly Hills",
        "state": "CA",
        "country": "United States",
        "formattedAddress": [
          "400 N Canon Dr (at Brighton Way)",
          "Beverly Hills, CA 90210",
          "United States"
        ]
      }
    },
    {
      "id": "5ab54763b25fee59a956539f",
      "name": "Din Tai Fung",
      "review": "Bathrooms are clean. Staff is friendly. Will pee here again.",
      "location": {
        "address": "Westfield Century City",
        "lat": 34.05791578577279,
        "lng": -118.41748209895631,
        "postalCode": "90067",
        "cc": "US",
        "neighborhood": "Beverly Hills",
        "city": "Beverly Hills",
        "state": "CA",
        "country": "United States",
        "formattedAddress": [
          "Westfield Century City",
          "Beverly Hills, CA 90067",
          "United States"
        ]
      }
    },
    {
      "id": "4a7b3cecf964a52070ea1fe3",
      "name": "208 Rodeo Restaurant",
      "review": "Bathrooms are clean. Staff is friendly. Will pee here again.",
      "location": {
        "address": "208 Via Rodeo Dr",
        "crossStreet": "at Rodeo Dr",
        "lat": 34.06727414364053,
        "lng": -118.40075453664217,
        "postalCode": "90210",
        "cc": "US",
        "city": "Beverly Hills",
        "state": "CA",
        "country": "United States",
        "formattedAddress": [
          "208 Via Rodeo Dr (at Rodeo Dr)",
          "Beverly Hills, CA 90210",
          "United States"
        ]
      }
    },
    {
      "id": "3fd66200f964a520d8ee1ee3",
      "name": "The Belvedere",
      "review": "Bathrooms are clean. Staff is friendly. Will pee here again.",
      "location": {
        "address": "9882 Santa Monica Blvd",
        "crossStreet": "in The Peninsula Beverly Hills",
        "lat": 34.065711752808134,
        "lng": -118.41035707349882,
        "postalCode": "90212",
        "cc": "US",
        "city": "Beverly Hills",
        "state": "CA",
        "country": "United States",
        "formattedAddress": [
          "9882 Santa Monica Blvd (in The Peninsula Beverly Hills)",
          "Beverly Hills, CA 90212",
          "United States"
        ]
      }
    },
    {
      "id": "511dc187e4b085edef6018c3",
      "name": "Sasabune Beverly Hills",
      "review": "Bathrooms are clean. Staff is friendly. Will pee here again.",
      "location": {
        "address": "9162 W Olympic Blvd",
        "lat": 34.059138854280114,
        "lng": -118.39122085524002,
        "postalCode": "90212",
        "cc": "US",
        "city": "Beverly Hills",
        "state": "CA",
        "country": "United States",
        "formattedAddress": [
          "9162 W Olympic Blvd",
          "Beverly Hills, CA 90212",
          "United States"
        ]
      }
    },
    {
      "id": "3fd66200f964a520d3ee1ee3",
      "name": "Matsuhisa",
      "review": "Bathrooms are clean. Staff is friendly. Will pee here again.",
      "location": {
        "address": "129 N LA Cienega Blvd",
        "lat": 34.06836170473439,
        "lng": -118.37637685933298,
        "postalCode": "90211",
        "cc": "US",
        "city": "Beverly Hills",
        "state": "CA",
        "country": "United States",
        "formattedAddress": [
          "129 N LA Cienega Blvd",
          "Beverly Hills, CA 90211",
          "United States"
        ]
      }
    },
    {
      "id": "3fd66200f964a520d5ee1ee3",
      "name": "Spago Beverly Hills",
      "review": "Bathrooms are clean. Staff is friendly. Will pee here again.",
      "location": {
        "address": "176 N Canon Dr",
        "crossStreet": "at Wilshire Blvd.",
        "lat": 34.06755265952299,
        "lng": -118.39765732884192,
        "postalCode": "90210",
        "cc": "US",
        "city": "Beverly Hills",
        "state": "CA",
        "country": "United States",
        "formattedAddress": [
          "176 N Canon Dr (at Wilshire Blvd.)",
          "Beverly Hills, CA 90210",
          "United States"
        ]
      }
    },
    {
      "id": "510452ffe4b04ee8a7d7378a",
      "name": "Chaumont Café and Bakery",
      "review": "Bathrooms are clean. Staff is friendly. Will pee here again.",
      "location": {
        "address": "143 S Beverly Dr",
        "crossStreet": "at Wilshire Blvd",
        "lat": 34.06607105663916,
        "lng": -118.39914157134474,
        "labeledLatLngs": [
          {
            "label": "display",
            "lat": 34.06607105663916,
            "lng": -118.39914157134474
          }
        ],
        "postalCode": "90212",
        "cc": "US",
        "city": "Beverly Hills",
        "state": "CA",
        "country": "United States",
        "formattedAddress": [
          "143 S Beverly Dr (at Wilshire Blvd)",
          "Beverly Hills, CA 90212",
          "United States"
        ]
      }
    },
    {
      "id": "4a6f218bf964a5205fd51fe3",
      "name": "La Provence Patisserie & Cafe",
      "review": "Bathrooms are clean. Staff is friendly. Will pee here again.",
      "location": {
        "address": "8950 W Olympic Blvd #110",
        "crossStreet": "S La Peer Dr",
        "lat": 34.059267850430544,
        "lng": -118.38727802911762,
        "labeledLatLngs": [
          {
            "label": "display",
            "lat": 34.059267850430544,
            "lng": -118.38727802911762
          }
        ],
        " postalCode": "90211",
        "cc": "US",
        "city": "Beverly Hills",
        "state": "CA",
        "country": "United States",
        "formattedAddress": [
          "8950 W Olympic Blvd #110 (S La Peer Dr)",
          "Beverly Hills, CA 90211",
          "United States"
        ]
      }
    },
    {
      "id": "5b371bc69f8a9f002ccddaad",
      "name": "Madeo",
      "review": "Bathrooms are clean. Staff is friendly. Will pee here again.",
      "location": {
        "address": "362 N Camden Dr",
        "lat": 34.068374598256604,
        "lng": -118.40386791500717,
        "labeledLatLngs": [
          {
            "label": "display",
            "lat": 34.068374598256604,
            "lng": -118.40386791500717
          }
        ],
        "postalCode": "90210",
        "cc": "US",
        "city": "Beverly Hills",
        "state": "CA",
        "country": "United States",
        "formattedAddress": [
          "362 N Camden Dr",
          "Beverly Hills, CA 90210",
          "United States"
        ]
      }
    },
    {
      "id": "3fd66200f964a520d4ee1ee3",
      "name": "Ruth's Chris Steak House",
      "review": "Bathrooms are clean. Staff is friendly. Will pee here again.",
      "location": {
        "address": "224 South Beverly Drive",
        "lat": 34.064029,
        "lng": -118.398768,
        "labeledLatLngs": [
          {
            "label": "display",
            "lat": 34.064029,
            "lng": -118.398768
          }
        ],
        " postalCode": "90212",
        "cc": "US",
        "city": "Beverly Hills",
        "state": "CA",
        "country": "United States",
        "formattedAddress": [
          "224 South Beverly Drive",
          "Beverly Hills, CA 90212",
          "United States"
        ]
      }
    },
    {
      "id": "49d956ebf964a520255e1fe3",
      "name": "Fogo de Chão",
      "review": "Bathrooms are clean. Staff is friendly. Will pee here again.",
      "location": {
        "address": "133 N LA Cienega Blvd",
        "lat": 34.068780164226965,
        "lng": -118.37638833646395,
        "labeledLatLng": [
          {
            "label": "display",
            "lat": 34.068780164226965,
            "lng": -118.37638833646395
          }
        ],
        "postalCode": "90211",
        "cc": "US",
        "city": "Beverly Hills",
        "state": "CA",
        "country": "United States",
        "formattedAddress": [
          "133 N LA Cienega Blvd",
          "Beverly Hills, CA 90211",
          "United States"
        ]
      }
    },
    {
      "id": "54408775498ef1ca78836303",
      "name": "Ocean Prime",
      "review": "Bathrooms are clean. Staff is friendly. Will pee here again.",
      "location": {
        "address": "9595 Wilshire Blvd",
        "crossStreet": "Dayton Way",
        "lat": 34.0673995357774,
        "lng": -118.4025231668648,
        "labeledLatLngs": [
          {
            "label": "display",
            "lat": 34.0673995357774,
            "lng": -118.4025231668648
          }
        ],
        " postalCode": "90212",
        "cc": "US",
        "neighborhood": "Beverly Hills",
        "city": "Beverly Hills",
        "state": "CA",
        "country": "United States",
        "formattedAddress": [
          "9595 Wilshire Blvd (Dayton Way)",
          "Beverly Hills, CA 90212",
          "United States"
        ]
      }
    },
    {
      "id": "4a56b30ef964a520abb51fe3",
      "name": "The Rooftop Grill",
      "review": "Bathrooms are clean. Staff is friendly. Will pee here again.",
      "location": {
        "address": "225 N Canon Dr",
        "crossStreet": "Wilshire",
        "lat": 34.06773779553194,
        "lng": -118.39890983871827,
        "labeledLatLngs": [
          {
            "label": "display",
            "lat": 34.06773779553194,
            "lng": -118.39890983871827
          }
        ],
        " postalCode": "90210",
        "cc": "US",
        "neighborhood": "Beverly Hills",
        "city": "Beverly Hills",
        "state": "CA",
        "country": "United States",
        "formattedAddress": [
          "225 N Canon Dr (Wilshire)",
          "Beverly Hills, CA 90210",
          "United States"
        ]
      }
    },
    {
      "id": "50202017e4b0586c5d20e336",
      "name": "Cafe Istanbul",
      "review": "Bathrooms are clean. Staff is friendly. Will pee here again.",
      "location": {
        "address": "326 S Beverly Dr",
        "lat": 34.06122015085238,
        "lng": -118.3990373438276,
        "labeledLatLngs": [
          {
            "label": "display",
            "lat": 34.06122015085238,
            "lng": -118.3990373438276
          }
        ],
        "postalCode": "90212",
        "cc": "US",
        "city": "Beverly Hills",
        "state": "CA",
        "country": "United States",
        "formattedAddress": [
          "326 S Beverly Dr",
          "Beverly Hills, CA 90212",
          "United States"
        ]
      }
    },
    {
      "id": "52d62c5a11d26ef0c0cd538c",
      "name": "Maude",
      "review": "Bathrooms are clean. Staff is friendly. Will pee here again.",
      "location": {
        "address": "212 S Beverly Dr",
        "crossStreet": "at Wilshire Blvd",
        "lat": 34.0646186119223,
        "lng": -118.39904140305424,
        "labeledLatLngs": [
          {
            "label": "display",
            "lat": 34.0646186119223,
            "lng": -118.39904140305424
          }
        ],
        " postalCode": "90212",
        "cc": "US",
        "city": "Beverly Hills",
        "state": "CA",
        "country": "United States",
        "formattedAddress": [
          "212 S Beverly Dr (at Wilshire Blvd)",
          "Beverly Hills, CA 90212",
          "United States"
        ]
      }
    },
    {
      "id": "4afb15a6f964a520031b22e3",
      "name": "Urasawa",
      "review": "Bathrooms are clean. Staff is friendly. Will pee here again.",
      "location": {
        "address": "218 N Rodeo Dr",
        "lat": 34.067429615398474,
        "lng": -118.40077710565863,
        "labeledLatLngs": [
          {
            "label": "display",
            "lat": 34.067429615398474,
            "lng": -118.40077710565863
          }
        ],
        "postalCode": "90210",
        "cc": "US",
        "city": "Beverly Hills",
        "state": "CA",
        "country": "United States",
        "formattedAddress": [
          "218 N Rodeo Dr",
          "Beverly Hills, CA 90210",
          "United States"
        ]
      }
    },
    {
      "id": "4b070378f964a52066f522e3",
      "name": "Panini Cafe",
      "review": "Bathrooms are clean. Staff is friendly. Will pee here again.",
      "location": {
        "address": "9601 Santa Monica Blvd",
        "crossStreet": "at Camden Dr",
        "lat": 34.069899551453176,
        "lng": -118.40546889591468,
        "labeledLatLngs": [
          {
            "label": "display",
            "lat": 34.069899551453176,
            "lng": -118.40546889591468
          }
        ],
        "postalCode": "90210",
        "cc": "US",
        "city": "Beverly Hills",
        "state": "CA",
        "country": "United States",
        "formattedAddress": [
          "9601 Santa Monica Blvd (at Camden Dr)",
          "Beverly Hills, CA 90210",
          "United States"
        ]
      }
    },
    {
      "id": "3fd66200f964a520c8ee1ee3",
      "name": "Crustacean",
      "review": "Bathrooms are clean. Staff is friendly. Will pee here again.",
      "location": {
        "address": "9646 Santa Monica Blvd",
        "crossStreet": "at Bedford Dr.",
        "lat": 34.069209114266265,
        "lng": -118.40626074993581,
        "labeledLatLngs": [
          {
            "label": "display",
            "lat": 34.069209114266265,
            "lng": -118.40626074993581
          }
        ],
        "postalCode": "90210",
        "cc": "US",
        "city": "Beverly Hills",
        "state": "CA",
        "country": "United States",
        "formattedAddress": [
          "9646 Santa Monica Blvd (at Bedford Dr.)",
          "Beverly Hills, CA 90210",
          "United States"
        ]
      }
    },
    {
      "id": "4ad7ad27f964a520910d21e3",
      "name": "Madeo Restaurant",
      "review": "Bathrooms are clean. Staff is friendly. Will pee here again.",
      "location": {
        "address": "8897 Beverly Blvd",
        "crossStreet": "Brighton",
        "lat": 34.0771908107015,
        "lng": -118.38553943387714,
        "labeledLatLngs": [
          {
            "label": "display",
            "lat": 34.0771908107015,
            "lng": -118.38553943387714
          }
        ],
        "postalCode": "90210",
        "cc": "US",
        "city": "Beverly Hills",
        "state": "CA",
        "country": "United States",
        "formattedAddress": [
          "8897 Beverly Blvd (Brighton)",
          "Beverly Hills, CA 90210",
          "United States"
        ]
      }
    },
    {
      "id": "4ab2f9bdf964a5202b6d20e3",
      "name": "Gyu-Kaku Japanese BBQ",
      "review": "Bathrooms are clean. Staff is friendly. Will pee here again.",
      "location": {
        "address": "163 N LA Cienega Blvd",
        "crossStreet": "at Clifton Way",
        "lat": 34.06923155052837,
        "lng": -118.37655393559237,
        "labeledLatLngs": [
          {
            "label": "display",
            "lat": 34.06923155052837,
            "lng": -118.37655393559237
          }
        ],
        "postalCode": "90211",
        "cc": "US",
        "city": "Beverly Hills",
        "state": "CA",
        "country": "United States",
        "formattedAddress": [
          "163 N LA Cienega Blvd (at Clifton Way)",
          "Beverly Hills, CA 90211",
          "United States"
        ]
      }
    },
    {
      "id": "4ace2d76f964a520ddce20e3",
      "name": "CUT by Wolfgang Puck",
      "review": "Bathrooms are clean. Staff is friendly. Will pee here again.",
      "location": {
        "address": "9500 Wilshire Blvd",
        "crossStreet": "(at the Beverly Wilshire, A Four Seasons Hotel)",
        "lat": 34.06642545359503,
        "lng": -118.40076076928885,
        "labeledLatLngs": [
          {
            "label": "display",
            "lat": 34.06642545359503,
            "lng": -118.40076076928885
          }
        ],
        " postalCode": "90212",
        "cc": "US",
        "city": "Beverly Hills",
        "state": "CA",
        "country": "United States",
        "formattedAddress": [
          "9500 Wilshire Blvd ((at the Beverly Wilshire, A Four Seasons Hotel))",
          "Beverly Hills, CA 90212",
          "United States"
        ]
      }
    },
    {
      "id": "4ab924c1f964a5202f7e20e3",
      "name": "Via Alloro",
      "review": "Bathrooms are clean. Staff is friendly. Will pee here again.",
      "location": {
        "address": "301 N Canon",
        "lat": 34.06928198968345,
        "lng": -118.39967332785008,
        "labeledLatLngs": [
          {
            "label": "display",
            "lat": 34.06928198968345,
            "lng": -118.39967332785008
          }
        ],
        " postalCode": "90210",
        "cc": "US",
        "city": "Los Angeles",
        "state": "CA",
        "country": "United States",
        "formattedAddress": [
          "301 N Canon",
          "Los Angeles, CA 90210",
          "United States"
        ]
      }
    },
    {
      "id": "4b81a749f964a5208eb530e3",
      "name": "Cabana Cafe at the Beverly Hills Hotel",
      "review": "Bathrooms are clean. Staff is friendly. Will pee here again.",
      "location": {
        "address": "9641 Sunset Blvd",
        "lat": 34.0817957,
        "lng": -118.4133946,
        "labeledLatLngs": [
          {
            "label": "display",
            "lat": 34.0817957,
            "lng": -118.4133946
          }
        ],
        " postalCode": "90210",
        "cc": "US",
        "neighborhood": "West Los Angeles",
        "city": "Beverly Hills",
        "state": "CA",
        "country": "United States",
        "formattedAddress": [
          "9641 Sunset Blvd",
          "Beverly Hills, CA 90210",
          "United States"
        ]
      }
    },
    {
      "id": "4d3a0739979ea1431ac88bfc",
      "name": "SUGARFISH | Santa Monica",
      "review": "Bathrooms are clean. Staff is friendly. Will pee here again.",
      "location": {
        "address": "1345 2nd St",
        "lat": 34.015238079523634,
        "lng": -118.49737728980209,
        "labeledLatLngs": [
          {
            "label": "display",
            "lat": 34.015238079523634,
            "lng": -118.49737728980209
          }
        ],
        " postalCode": "90401",
        "cc": "US",
        "city": "Santa Monica",
        "state": "CA",
        "country": "United States",
        "formattedAddress": [
          "1345 2nd St",
          "Santa Monica, CA 90401",
          "United States"
        ]
      }
    },
    {
      "id": "56455453498e2e765346728d",
      "name": "Mendocino Farms",
      "review": "Bathrooms are clean. Staff is friendly. Will pee here again.",
      "location": {
        "address": "631 Wilshire Blvd Ste E",
        "lat": 34.021141745178774,
        "lng": -118.49587009269264,
        "labeledLatLngs": [
          {
            "label": "display",
            "lat": 34.021141745178774,
            "lng": -118.49587009269264
          }
        ],
        " postalCode": "90401",
        "cc": "US",
        "city": "Santa Monica",
        "state": "CA",
        "country": "United States",
        "formattedAddress": [
          "631 Wilshire Blvd Ste E",
          "Santa Monica, CA 90401",
          "United States"
        ]
      }
    },
    {
      "id": "5562a280498e8dcda03ba194",
      "name": "Forma Restaurant & Cheese Bar",
      "review": "Bathrooms are clean. Staff is friendly. Will pee here again.",
      "location": {
        "address": "1610 Montana Ave",
        "lat": 34.03388026769416,
        "lng": -118.4927930102135,
        "labeledLatLngs": [
          {
            "label": "display",
            "lat": 34.03388026769416,
            "lng": -118.4927930102135
          }
        ],
        " postalCode": "90403",
        "cc": "US",
        "neighborhood": "Wilshire-Montana",
        "city": "Santa Monica",
        "state": "CA",
        "country": "United States",
        "formattedAddress": [
          "1610 Montana Ave",
          "Santa Monica, CA 90403",
          "United States"
        ]
      }
    },
    {
      "id": "49fca084f964a520c26e1fe3",
      "name": "Cha Cha Chicken",
      "review": "Bathrooms are clean. Staff is friendly. Will pee here again.",
      "location": {
        "address": "1906 Ocean Ave",
        "crossStreet": "at Pico Blvd.",
        "lat": 34.0072064640575,
        "lng": -118.49023218743308,
        "labeledLatLngs": [
          {
            "label": "display",
            "lat": 34.0072064640575,
            "lng": -118.49023218743308
          }
        ],
        " postalCode": "90405",
        "cc": "US",
        "city": "Santa Monica",
        "state": "CA",
        "country": "United States",
        "formattedAddress": [
          "1906 Ocean Ave (at Pico Blvd.)",
          "Santa Monica, CA 90405",
          "United States"
        ]
      }
    },
    {
      "id": "4ddbb5ef1f6e9b46a129bc6a",
      "name": "Tender Greens",
      "review": "Bathrooms are clean. Staff is friendly. Will pee here again.",
      "location": {
        "address": "201 Arizona Ave",
        "crossStreet": "at 2nd St",
        "lat": 34.01642631916953,
        "lng": -118.49858334218415,
        "labeledLatLngs": [
          {
            "label": "display",
            "lat": 34.01642631916953,
            "lng": -118.49858334218415
          }
        ],
        " postalCode": "90401",
        "cc": "US",
        "city": "Santa Monica",
        "state": "CA",
        "country": "United States",
        "formattedAddress": [
          "201 Arizona Ave (at 2nd St)",
          "Santa Monica, CA 90401",
          "United States"
        ]
      }
    },
    {
      "id": "5580cfe3498eb8ba1ca0874a",
      "name": "Cassia",
      "review": "Bathrooms are clean. Staff is friendly. Will pee here again.",
      "location": {
        "address": "1314 7th St",
        "lat": 34.01975737547978,
        "lng": -118.49366773187546,
        "labeledLatLngs": [
          {
            "label": "display",
            "lat": 34.01975737547978,
            "lng": -118.49366773187546
          }
        ],
        " postalCode": "90401",
        "cc": "US",
        "city": "Santa Monica",
        "state": "CA",
        "country": "United States",
        "formattedAddress": [
          "1314 7th St",
          "Santa Monica, CA 90401",
          "United States"
        ]
      }
    },
    {
      "id": "545a7f18498e92881a614142",
      "name": "Sweetfin Poké",
      "review": "Bathrooms are clean. Staff is friendly. Will pee here again.",
      "location": {
        "address": "829 Broadway",
        "crossStreet": "at Lincoln Ct",
        "lat": 34.018590578430036,
        "lng": -118.4893575753661,
        "labeledLatLngs": [
          {
            "label": "display",
            "lat": 34.018590578430036,
            "lng": -118.4893575753661
          }
        ],
        " postalCode": "90401",
        "cc": "US",
        "city": "Santa Monica",
        "state": "CA",
        "country": "United States",
        "formattedAddress": [
          "829 Broadway (at Lincoln Ct)",
          "Santa Monica, CA 90401",
          "United States"
        ]
      }
    },
    {
      "id": "4da4bb1d0f578cfaafdbd518",
      "name": "The Misfit Restaurant + Bar",
      "review": "Bathrooms are clean. Staff is friendly. Will pee here again.",
      "location": {
        "address": "225 Santa Monica Blvd",
        "crossStreet": "at 2nd St",
        "lat": 34.01539905927769,
        "lng": -118.49659148370078,
        "labeledLatLngs": [
          {
            "label": "display",
            "lat": 34.01539905927769,
            "lng": -118.49659148370078
          }
        ],
        " postalCode": "90401",
        "cc": "US",
        "city": "Santa Monica",
        "state": "CA",
        "country": "United States",
        "formattedAddress": [
          "225 Santa Monica Blvd (at 2nd St)",
          "Santa Monica, CA 90401",
          "United States"
        ]
      }
    },
    {
      "id": "49d046d0f964a520185b1fe3",
      "name": "Huckleberry Cafe & Bakery",
      "review": "Bathrooms are clean. Staff is friendly. Will pee here again.",
      "location": {
        "address": "1014 Wilshire Blvd",
        "crossStreet": "at 10th Ct",
        "lat": 34.02400201667549,
        "lng": -118.49209543643309,
        "labeledLatLngs": [
          {
            "label": "display",
            "lat": 34.02400201667549,
            "lng": -118.49209543643309
          }
        ],
        " postalCode": "90401",
        "cc": "US",
        "city": "Santa Monica",
        "state": "CA",
        "country": "United States",
        "formattedAddress": [
          "1014 Wilshire Blvd (at 10th Ct)",
          "Santa Monica, CA 90401",
          "United States"
        ]
      }
    },
    {
      "id": "4ceff689ed62721ed37563fd",
      "name": "Farmshop",
      "review": "Bathrooms are clean. Staff is friendly. Will pee here again.",
      "location": {
        "address": "225 26th St",
        "lat": 34.047561334988096,
        "lng": -118.4905129737527,
        "labeledLatLngs": [
          {
            "label": "display",
            "lat": 34.047561334988096,
            "lng": -118.4905129737527
          }
        ],
        " postalCode": "90402",
        "cc": "US",
        "city": "Santa Monica",
        "state": "CA",
        "country": "United States",
        "formattedAddress": [
          "225 26th St",
          "Santa Monica, CA 90402",
          "United States"
        ]
      }
    },
    {
      "id": "55ce2ff5498e0153c737c871",
      "name": "sweetgreen",
      "review": "Bathrooms are clean. Staff is friendly. Will pee here again.",
      "location": {
        "address": "1343 4th St",
        "lat": 34.01697555133612,
        "lng": -118.49551767110819,
        "labeledLatLngs": [
          {
            "label": "display",
            "lat": 34.01697555133612,
            "lng": -118.49551767110819
          }
        ],
        " postalCode": "90401",
        "cc": "US",
        "city": "Santa Monica",
        "state": "CA",
        "country": "United States",
        "formattedAddress": [
          "1343 4th St",
          "Santa Monica, CA 90401",
          "United States"
        ]
      }
    },
    {
      "id": "49f8e126f964a520316d1fe3",
      "name": "Santa Monica Seafood",
      "review": "Bathrooms are clean. Staff is friendly. Will pee here again.",
      "location": {
        "address": "1000 Wilshire Blvd",
        "crossStreet": "at 10th St.",
        "lat": 34.023755973956206,
        "lng": -118.49226515873083,
        "labeledLatLngs": [
          {
            "label": "display",
            "lat": 34.023755973956206,
            "lng": -118.49226515873083
          }
        ],
        " postalCode": "90401",
        "cc": "US",
        "neighborhood": "Santa Monica",
        "city": "Santa Monica",
        "state": "CA",
        "country": "United States",
        "formattedAddress": [
          "1000 Wilshire Blvd (at 10th St.)",
          "Santa Monica, CA 90401",
          "United States"
        ]
      }
    },
    {
      "id": "4aad9d3bf964a520036120e3",
      "name": "Blue Plate Oysterette",
      "review": "Bathrooms are clean. Staff is friendly. Will pee here again.",
      "location": {
        "address": "1355 Ocean Ave",
        "crossStreet": "btwn Santa Monica Blvd & Arizona Ave",
        "lat": 34.014489437045704,
        "lng": -118.49822552552845,
        "labeledLatLngs": [
          {
            "label": "display",
            "lat": 34.014489437045704,
            "lng": -118.49822552552845
          }
        ],
        " postalCode": "90401",
        "cc": "US",
        "city": "Santa Monica",
        "state": "CA",
        "country": "United States",
        "formattedAddress": [
          "1355 Ocean Ave (btwn Santa Monica Blvd & Arizona Ave)",
          "Santa Monica, CA 90401",
          "United States"
        ]
      }
    },
    {
      "id": "4a2ffbe1f964a52001991fe3",
      "name": "Bay Cities Italian Deli & Bakery",
      "review": "Bathrooms are clean. Staff is friendly. Will pee here again.",
      "location": {
        "address": "1517 Lincoln Blvd",
        "crossStreet": "btw Broadway & Colorado",
        "lat": 34.01783101268094,
        "lng": -118.48931944597537,
        "labeledLatLngs": [
          {
            "label": "display",
            "lat": 34.01783101268094,
            "lng": -118.48931944597537
          }
        ],
        " postalCode": "90401",
        "cc": "US",
        "neighborhood": "West Los Angeles",
        "city": "Santa Monica",
        "state": "CA",
        "country": "United States",
        "formattedAddress": [
          "1517 Lincoln Blvd (btw Broadway & Colorado)",
          "Santa Monica, CA 90401",
          "United States"
        ]
      }
    },
    {
      "id": "56fea33a498e4c6f24e1bf4b",
      "name": "Bondi Harvest",
      "review": "Bathrooms are clean. Staff is friendly. Will pee here again.",
      "location": {
        "address": "1814 Berkeley St",
        "crossStreet": "Nebraska",
        "lat": 34.03152294157293,
        "lng": -118.46276866696846,
        "labeledLatLngs": [
          {
            "label": "display",
            "lat": 34.03152294157293,
            "lng": -118.46276866696846
          }
        ],
        " postalCode": "90404",
        "cc": "US",
        "city": "Santa Monica",
        "state": "CA",
        "country": "United States",
        "formattedAddress": [
          "1814 Berkeley St (Nebraska)",
          "Santa Monica, CA 90404",
          "United States"
        ]
      }
    },
    {
      "id": "4da2ca2c0f578cfa0ecba918",
      "name": "Stella Barra",
      "review": "Bathrooms are clean. Staff is friendly. Will pee here again.",
      "location": {
        "address": "2000 Main St",
        "crossStreet": "btw Bay St & Bicknell Ave",
        "lat": 34.006721058095266,
        "lng": -118.48854586318316,
        "labeledLatLngs": [
          {
            "label": "display",
            "lat": 34.006721058095266,
            "lng": -118.48854586318316
          }
        ],
        " postalCode": "90405",
        "cc": "US",
        "city": "Santa Monica",
        "state": "CA",
        "country": "United States",
        "formattedAddress": [
          "2000 Main St (btw Bay St & Bicknell Ave)",
          "Santa Monica, CA 90405",
          "United States"
        ]
      }
    },
    {
      "id": "58f96576f0ca9540b1151125",
      "name": "Tocaya Organica Santa Monica",
      "review": "Bathrooms are clean. Staff is friendly. Will pee here again.",
      "location": {
        "address": "507 Wilshire Blvd",
        "crossStreet": "5th Street",
        "lat": 34.0202511794541,
        "lng": -118.49699152983126,
        "labeledLatLngs": [
          {
            "label": "display",
            "lat": 34.0202511794541,
            "lng": -118.49699152983126
          }
        ],
        " postalCode": "90401",
        "cc": "US",
        "city": "Santa Monica",
        "state": "CA",
        "country": "United States",
        "formattedAddress": [
          "507 Wilshire Blvd (5th Street)",
          "Santa Monica, CA 90401",
          "United States"
        ]
      }
    },
    {
      "id": "45267b57f964a520fb3a1fe3",
      "name": "BOA Steakhouse",
      "review": "Bathrooms are clean. Staff is friendly. Will pee here again.",
      "location": {
        "address": "101 Santa Monica Blvd",
        "crossStreet": "Ocean Ave.",
        "lat": 34.01427518656455,
        "lng": -118.49808775688848,
        "labeledLatLngs": [
          {
            "label": "display",
            "lat": 34.01427518656455,
            "lng": -118.49808775688848
          }
        ],
        " postalCode": "90401",
        "cc": "US",
        "city": "Santa Monica",
        "state": "CA",
        "country": "United States",
        "formattedAddress": [
          "101 Santa Monica Blvd (Ocean Ave.)",
          "Santa Monica, CA 90401",
          "United States"
        ]
      }
    },
    {
      "id": "591df7df6fa81f3c8c1f4296",
      "name": "Kazunori",
      "review": "Bathrooms are clean. Staff is friendly. Will pee here again.",
      "location": {
        "address": "120 Broadway Ste 104",
        "lat": 34.01316367497552,
        "lng": -118.49592903211466,
        "labeledLatLngs": [
          {
            "label": "display",
            "lat": 34.01316367497552,
            "lng": -118.49592903211466
          }
        ],
        " postalCode": "90401",
        "cc": "US",
        "city": "Santa Monica",
        "state": "CA",
        "country": "United States",
        "formattedAddress": [
          "120 Broadway Ste 104",
          "Santa Monica, CA 90401",
          "United States"
        ]
      }
    },
    {
      "id": "51818730498ea1f998162a94",
      "name": "Pono Burger",
      "review": "Bathrooms are clean. Staff is friendly. Will pee here again.",
      "location": {
        "address": "829 Broadway",
        "lat": 34.01899651763502,
        "lng": -118.48898913287199,
        "labeledLatLngs": [
          {
            "label": "display",
            "lat": 34.01899651763502,
            "lng": -118.48898913287199
          }
        ],
        " postalCode": "90401",
        "cc": "US",
        "city": "Santa Monica",
        "state": "CA",
        "country": "United States",
        "formattedAddress": [
          "829 Broadway",
          "Santa Monica, CA 90401",
          "United States"
        ]
      }
    },
    {
      "id": "4ea4aa88490102dac38dadf2",
      "name": "Tar & Roses",
      "review": "Bathrooms are clean. Staff is friendly. Will pee here again.",
      "location": {
        "address": "602 Santa Monica Blvd",
        "crossStreet": "at 6th St.",
        "lat": 34.01797436541087,
        "lng": -118.49319005368675,
        "labeledLatLngs": [
          {
            "label": "display",
            "lat": 34.01797436541087,
            "lng": -118.49319005368675
          }
        ],
        " postalCode": "90401",
        "cc": "US",
        "city": "Santa Monica",
        "state": "CA",
        "country": "United States",
        "formattedAddress": [
          "602 Santa Monica Blvd (at 6th St.)",
          "Santa Monica, CA 90401",
          "United States"
        ]
      }
    },
    {
      "id": "4f7f35020039ef8a139bd3aa",
      "name": "Mercado",
      "review": "Bathrooms are clean. Staff is friendly. Will pee here again.",
      "location": {
        "address": "1416 4th St",
        "crossStreet": "at Santa Monica Blvd",
        "lat": 34.016032885966844,
        "lng": -118.49479276983023,
        "labeledLatLngs": [
          {
            "label": "display",
            "lat": 34.016032885966844,
            "lng": -118.49479276983023
          }
        ],
        " postalCode": "90401",
        "cc": "US",
        "city": "Santa Monica",
        "state": "CA",
        "country": "United States",
        "formattedAddress": [
          "1416 4th St (at Santa Monica Blvd)",
          "Santa Monica, CA 90401",
          "United States"
        ]
      }
    },
    {
      "id": "49c85603f964a52017581fe3",
      "name": "Tacos Por Favor",
      "review": "Bathrooms are clean. Staff is friendly. Will pee here again.",
      "location": {
        "address": "1408 Olympic Blvd",
        "crossStreet": "at 14th St.",
        "lat": 34.01974054723835,
        "lng": -118.48024687818794,
        "labeledLatLngs": [
          {
            "label": "display",
            "lat": 34.01974054723835,
            "lng": -118.48024687818794
          }
        ],
        " postalCode": "90404",
        "cc": "US",
        "city": "Santa Monica",
        "state": "CA",
        "country": "United States",
        "formattedAddress": [
          "1408 Olympic Blvd (at 14th St.)",
          "Santa Monica, CA 90404",
          "United States"
        ]
      }
    },
    {
      "id": "4396d5a8f964a520962b1fe3",
      "name": "Hillstone",
      "review": "Bathrooms are clean. Staff is friendly. Will pee here again.",
      "location": {
        "address": "202 Wilshire Blvd",
        "crossStreet": "at 2nd St",
        "lat": 34.017534703757015,
        "lng": -118.50005504851748,
        "labeledLatLngs": [
          {
            "label": "display",
            "lat": 34.017534703757015,
            "lng": -118.50005504851748
          }
        ],
        " postalCode": "90401",
        "cc": "US",
        "city": "Santa Monica",
        "state": "CA",
        "country": "United States",
        "formattedAddress": [
          "202 Wilshire Blvd (at 2nd St)",
          "Santa Monica, CA 90401",
          "United States"
        ]
      }
    },
    {
      "id": "455d9055f964a520763d1fe3",
      "name": "Bubba Gump Shrimp Co.",
      "review": "Bathrooms are clean. Staff is friendly. Will pee here again.",
      "location": {
        "address": "301 Santa Monica Pier Bldg 9",
        "crossStreet": "at Ocean Ave",
        "lat": 34.00972536187311,
        "lng": -118.49716186523438,
        "labeledLatLngs": [
          {
            "label": "display",
            "lat": 34.00972536187311,
            "lng": -118.49716186523438
          }
        ],
        " postalCode": "90401",
        "cc": "US",
        "city": "Santa Monica",
        "state": "CA",
        "country": "United States",
        "formattedAddress": [
          "301 Santa Monica Pier Bldg 9 (at Ocean Ave)",
          "Santa Monica, CA 90401",
          "United States"
        ]
      }
    },
    {
      "id": "4a5cecc3f964a520debc1fe3",
      "name": "Larchmont Village Wine & Cheese",
      "review": "Bathrooms are clean. Staff is friendly. Will pee here again.",
      "location": {
        "address": "223 N Larchmont Blvd",
        "crossStreet": "at Beverly Blvd",
        "lat": 34.07532702900654,
        "lng": -118.32370411332779,
        "labeledLatLngs": [
          {
            "label": "display",
            "lat": 34.07532702900654,
            "lng": -118.32370411332779
          }
        ],
        " postalCode": "90004",
        "cc": "US",
        "city": "Los Angeles",
        "state": "CA",
        "country": "United States",
        "formattedAddress": [
          "223 N Larchmont Blvd (at Beverly Blvd)",
          "Los Angeles, CA 90004",
          "United States"
        ]
      }
    },

    {
      "id": "50e4af3de4b067b02e8b8842",
      "name": "Guisados",
      "review": "Bathrooms are clean. Staff is friendly. Will pee here again.",
      "location": {
        "address": "1261 W Sunset Blvd",
        "lat": 34.07026183469215,
        "lng": -118.25043738234746,
        "labeledLatLngs": [
          {
            "label": "display",
            "lat": 34.07026183469215,
            "lng": -118.25043738234746
          }
        ],
        " postalCode": "90026",
        "cc": "US",
        "city": "Los Angeles",
        "state": "CA",
        "country": "United States",
        "formattedAddress": [
          "1261 W Sunset Blvd",
          "Los Angeles, CA 90026",
          "United States"
        ]
      }
    },
    {
      "id": "544e59cc498ee019d1af49d6",
      "name": "Gjusta",
      "review": "Bathrooms are clean. Staff is friendly. Will pee here again.",
      "location": {
        "address": "320 Sunset Ave",
        "lat": 33.99510338284028,
        "lng": -118.47444691981889,
        "labeledLatLngs": [
          {
            "label": "display",
            "lat": 33.99510338284028,
            "lng": -118.47444691981889
          }
        ],
        " postalCode": "90291",
        "cc": "US",
        "city": "Venice",
        "state": "CA",
        "country": "United States",
        "formattedAddress": [
          "320 Sunset Ave",
          "Venice, CA 90291",
          "United States"
        ]
      }
    },
    {
      "id": "4ce0287b825e721ed2cd7445",
      "name": "Proof Bakery",
      "review": "Bathrooms are clean. Staff is friendly. Will pee here again.",
      "location": {
        "address": "3156 Glendale Blvd",
        "crossStreet": "at Madera Ave",
        "lat": 34.11697812558202,
        "lng": -118.26164093973044,
        "labeledLatLngs": [
          {
            "label": "display",
            "lat": 34.11697812558202,
            "lng": -118.26164093973044
          }
        ],
        " postalCode": "90039",
        "cc": "US",
        "city": "Los Angeles",
        "state": "CA",
        "country": "United States",
        "formattedAddress": [
          "3156 Glendale Blvd (at Madera Ave)",
          "Los Angeles, CA 90039",
          "United States"
        ]
      }
    },
    {
      "id": "5705a4e3498ea0a84f29d7f6",
      "name": "Tocaya Organica",
      "review": "Bathrooms are clean. Staff is friendly. Will pee here again.",
      "location": {
        "address": "1715 Pacific Ave",
        "lat": 33.986651266434144,
        "lng": -118.47159669165187,
        "labeledLatLngs": [
          {
            "label": "display",
            "lat": 33.986651266434144,
            "lng": -118.47159669165187
          }
        ],
        " postalCode": "90291",
        "cc": "US",
        "city": "Los Angeles",
        "state": "CA",
        "country": "United States",
        "formattedAddress": [
          "1715 Pacific Ave",
          "Los Angeles, CA 90291",
          "United States"
        ]
      }
    },
    {
      "id": "4d3a0739979ea1431ac88bfc",
      "name": "SUGARFISH | Santa Monica",
      "review": "Bathrooms are clean. Staff is friendly. Will pee here again.",
      "location": {
        "address": "1345 2nd St",
        "lat": 34.015238079523634,
        "lng": -118.49737728980209,
        "labeledLatLngs": [
          {
            "label": "display",
            "lat": 34.015238079523634,
            "lng": -118.49737728980209
          }
        ],
        " postalCode": "90401",
        "cc": "US",
        "city": "Santa Monica",
        "state": "CA",
        "country": "United States",
        "formattedAddress": [
          "1345 2nd St",
          "Santa Monica, CA 90401",
          "United States"
        ]
      }
    },
    {
      "id": "55e492b0498ed112bead0545",
      "name": "Wax Paper",
      "review": "Bathrooms are clean. Staff is friendly. Will pee here again.",
      "location": {
        "address": "2902 Knox Ave",
        "crossStreet": "Blake Ave",
        "lat": 34.102819706661414,
        "lng": -118.24367878871078,
        "labeledLatLngs": [
          {
            "label": "display",
            "lat": 34.102819706661414,
            "lng": -118.24367878871078
          }
        ],
        " postalCode": "90039",
        "cc": "US",
        "city": "Los Angeles",
        "state": "CA",
        "country": "United States",
        "formattedAddress": [
          "2902 Knox Ave (Blake Ave)",
          "Los Angeles, CA 90039",
          "United States"
        ]
      }
    },
    {
      "id": "4724d2d5f964a520d74b1fe3",
      "name": "Pizzeria Mozza",
      "review": "Bathrooms are clean. Staff is friendly. Will pee here again.",
      "location": {
        "address": "641 N Highland Ave",
        "crossStreet": "at Melrose Ave",
        "lat": 34.08313567708579,
        "lng": -118.33858040594735,
        "labeledLatLngs": [
          {
            "label": "display",
            "lat": 34.08313567708579,
            "lng": -118.33858040594735
          }
        ],
        " postalCode": "90036",
        "cc": "US",
        "city": "Los Angeles",
        "state": "CA",
        "country": "United States",
        "formattedAddress": [
          "641 N Highland Ave (at Melrose Ave)",
          "Los Angeles, CA 90036",
          "United States"
        ]
      }
    },
    {
      "id": "52b4ae65498e5cfe65970fae",
      "name": "Ricky's Fish Tacos",
      "review": "Bathrooms are clean. Staff is friendly. Will pee here again.",
      "location": {
        "address": "1400 N Virgil Ave",
        "crossStreet": "De Longpre Ave",
        "lat": 34.112386431800395,
        "lng": -118.26728871006353,
        "labeledLatLngs": [
          {
            "label": "display",
            "lat": 34.112386431800395,
            "lng": -118.26728871006353
          }
        ],
        " postalCode": "90027",
        "cc": "US",
        "city": "Los Angeles",
        "state": "CA",
        "country": "United States",
        "formattedAddress": [
          "1400 N Virgil Ave (De Longpre Ave)",
          "Los Angeles, CA 90027",
          "United States"
        ]
      }
    },
    {
      "id": "530faf60498e4936dd032288",
      "name": "Superba Food + Bread",
      "review": "Bathrooms are clean. Staff is friendly. Will pee here again.",
      "location": {
        "address": "1900 Lincoln Blvd",
        "crossStreet": "at Marco Pl",
        "lat": 33.99623708171249,
        "lng": -118.45647142998456,
        "labeledLatLngs": [
          {
            "label": "display",
            "lat": 33.99623708171249,
            "lng": -118.45647142998456
          }
        ],
        " postalCode": "90291",
        "cc": "US",
        "city": "Venice",
        "state": "CA",
        "country": "United States",
        "formattedAddress": [
          "1900 Lincoln Blvd (at Marco Pl)",
          "Venice, CA 90291",
          "United States"
        ]
      }
    },
    {
      "id": "4a6bdc59f964a52020d01fe3",
      "name": "Gjelina",
      "review": "Bathrooms are clean. Staff is friendly. Will pee here again.",
      "location": {
        "address": "1429 Abbot Kinney Blvd",
        "crossStreet": "at Millwood Ave",
        "lat": 33.9905443722471,
        "lng": -118.46496016256263,
        "labeledLatLngs": [
          {
            "label": "display",
            "lat": 33.9905443722471,
            "lng": -118.46496016256263
          }
        ],
        " postalCode": "90291",
        "cc": "US",
        "city": "Venice",
        "state": "CA",
        "country": "United States",
        "formattedAddress": [
          "1429 Abbot Kinney Blvd (at Millwood Ave)",
          "Venice, CA 90291",
          "United States"
        ]
      }
    },
    {
      "id": "553559ab498ee7a9ecd3e7ba",
      "name": "Jon & Vinny's",
      "review": "Bathrooms are clean. Staff is friendly. Will pee here again.",
      "location": {
        "address": "412 N Fairfax Ave",
        "lat": 34.07863285291522,
        "lng": -118.36135119817128,
        "labeledLatLngs": [
          {
            "label": "display",
            "lat": 34.07863285291522,
            "lng": -118.36135119817128
          }
        ],
        " postalCode": "90036",
        "cc": "US",
        "city": "Los Angeles",
        "state": "CA",
        "country": "United States",
        "formattedAddress": [
          "412 N Fairfax Ave",
          "Los Angeles, CA 90036",
          "United States"
        ]
      }
    },
    {
      "id": "54c7e947498e0337af1a23c0",
      "name": "Dune",
      "review": "Bathrooms are clean. Staff is friendly. Will pee here again.",
      "location": {
        "address": "3143 Glendale Blvd",
        "crossStreet": "Madera Ave",
        "lat": 34.11695938129221,
        "lng": -118.26206044844132,
        "labeledLatLngs": [
          {
            "label": "display",
            "lat": 34.11695938129221,
            "lng": -118.26206044844132
          }
        ],
        " postalCode": "90039",
        "cc": "US",
        "city": "Los Angeles",
        "state": "CA",
        "country": "United States",
        "formattedAddress": [
          "3143 Glendale Blvd (Madera Ave)",
          "Los Angeles, CA 90039",
          "United States"
        ]
      }
    },
    {
      "id": "5137c5afe4b097f9ccc87832",
      "name": "SUGARFISH by sushi nozawa",
      "review": "Bathrooms are clean. Staff is friendly. Will pee here again.",
      "location": {
        "address": "212 N Canon Dr",
        "crossStreet": "at Clifton Way",
        "lat": 34.068183045049516,
        "lng": -118.39850984469638,
        "labeledLatLngs": [
          {
            "label": "display",
            "lat": 34.068183045049516,
            "lng": -118.39850984469638
          }
        ],
        " postalCode": "90210",
        "cc": "US",
        "city": "Beverly Hills",
        "state": "CA",
        "country": "United States",
        "formattedAddress": [
          "212 N Canon Dr (at Clifton Way)",
          "Beverly Hills, CA 90210",
          "United States"
        ]
      }
    },
    {
      "id": "4bd7a7ffe914a59389d551fa",
      "name": "Mendocino Farms",
      "review": "Bathrooms are clean. Staff is friendly. Will pee here again.",
      "location": {
        "address": "4724 Admiralty Way",
        "crossStreet": "btwn Mindanao Way & Fiji Way",
        "lat": 33.97871721448978,
        "lng": -118.43802040228468,
        "labeledLatLngs": [
          {
            "label": "display",
            "lat": 33.97871721448978,
            "lng": -118.43802040228468
          }
        ],
        " postalCode": "90292",
        "cc": "US",
        "city": "Marina del Rey",
        "state": "CA",
        "country": "United States",
        "formattedAddress": [
          "4724 Admiralty Way (btwn Mindanao Way & Fiji Way)",
          "Marina del Rey, CA 90292",
          "United States"
        ]
      }
    },

    {
      "id": "4a8e0dd4f964a520e81120e3",
      "name": "Angelini Osteria",
      "review": "Bathrooms are clean. Staff is friendly. Will pee here again.",
      "location": {
        "address": "7313 Beverly Blvd",
        "crossStreet": "btwn N Fuller Ave & N Poinsettia Pl",
        "lat": 34.076286159463656,
        "lng": -118.34913979150514,
        "labeledLatLngs": [
          {
            "label": "display",
            "lat": 34.076286159463656,
            "lng": -118.34913979150514
          }
        ],
        " postalCode": "90036",
        "cc": "US",
        "city": "Los Angeles",
        "state": "CA",
        "country": "United States",
        "formattedAddress": [
          "7313 Beverly Blvd (btwn N Fuller Ave & N Poinsettia Pl)",
          "Los Angeles, CA 90036",
          "United States"
        ]
      }
    },
    {
      "id": "49e3aa19f964a520aa621fe3",
      "name": "Joan's on Third",
      "review": "Bathrooms are clean. Staff is friendly. Will pee here again.",
      "location": {
        "address": "8350 W 3rd St",
        "crossStreet": "at Kings Rd",
        "lat": 34.072820607435126,
        "lng": -118.37184744336331,
        "labeledLatLngs": [
          {
            "label": "display",
            "lat": 34.072820607435126,
            "lng": -118.37184744336331
          }
        ],
        " postalCode": "90048",
        "cc": "US",
        "city": "Los Angeles",
        "state": "CA",
        "country": "United States",
        "formattedAddress": [
          "8350 W 3rd St (at Kings Rd)",
          "Los Angeles, CA 90048",
          "United States"
        ]
      }
    },
    {
      "id": "4161e400f964a520641d1fe3",
      "name": "Urth Caffé",
      "review": "Bathrooms are clean. Staff is friendly. Will pee here again.",
      "location": {
        "address": "8565 Melrose Ave",
        "crossStreet": "at Westmount Dr",
        "lat": 34.08203396030007,
        "lng": -118.37876609457983,
        "labeledLatLngs": [
          {
            "label": "display",
            "lat": 34.08203396030007,
            "lng": -118.37876609457983
          }
        ],
        " postalCode": "90069",
        "cc": "US",
        "city": "West Hollywood",
        "state": "CA",
        "country": "United States",
        "formattedAddress": [
          "8565 Melrose Ave (at Westmount Dr)",
          "West Hollywood, CA 90069",
          "United States"
        ]
      }
    },
    {
      "id": "5562a280498e8dcda03ba194",
      "name": "Forma Restaurant & Cheese Bar",
      "review": "Bathrooms are clean. Staff is friendly. Will pee here again.",
      "location": {
        "address": "1610 Montana Ave",
        "lat": 34.03388026769416,
        "lng": -118.4927930102135,
        "labeledLatLngs": [
          {
            "label": "display",
            "lat": 34.03388026769416,
            "lng": -118.4927930102135
          }
        ],
        " postalCode": "90403",
        "cc": "US",
        "neighborhood": "Wilshire-Montana",
        "city": "Santa Monica",
        "state": "CA",
        "country": "United States",
        "formattedAddress": [
          "1610 Montana Ave",
          "Santa Monica, CA 90403",
          "United States"
        ]
      }
    },
    {
      "id": "4abc28daf964a5209e8620e3",
      "name": "The Bazaar by José Andrés",
      "review": "Bathrooms are clean. Staff is friendly. Will pee here again.",
      "location": {
        "address": "465 S LA Cienega Blvd",
        "crossStreet": "at San Vicente Blvd",
        "lat": 34.069868857451134,
        "lng": -118.37656435675692,
        "labeledLatLngs": [
          {
            "label": "display",
            "lat": 34.069868857451134,
            "lng": -118.37656435675692
          }
        ],
        " postalCode": "90048",
        "cc": "US",
        "city": "Los Angeles",
        "state": "CA",
        "country": "United States",
        "formattedAddress": [
          "465 S LA Cienega Blvd (at San Vicente Blvd)",
          "Los Angeles, CA 90048",
          "United States"
        ]
      }
    },
    {
      "id": "3fd66200f964a520cfee1ee3",
      "name": "Lawry's The Prime Rib",
      "review": "Bathrooms are clean. Staff is friendly. Will pee here again.",
      "location": {
        "address": "100 N La Cienega Blvd",
        "lat": 34.06788677381877,
        "lng": -118.37612208798915,
        "labeledLatLngs": [
          {
            "label": "display",
            "lat": 34.06788677381877,
            "lng": -118.37612208798915
          }
        ],
        " postalCode": "90211",
        "cc": "US",
        "city": "Beverly Hills",
        "state": "CA",
        "country": "United States",
        "formattedAddress": [
          "100 N La Cienega Blvd",
          "Beverly Hills, CA 90211",
          "United States"
        ]
      }
    },
    {
      "id": "4ac41be2f964a520399e20e3",
      "name": "Osteria La Buca",
      "review": "Bathrooms are clean. Staff is friendly. Will pee here again.",
      "location": {
        "address": "5210 Melrose Ave",
        "crossStreet": "at N Wilton Pl",
        "lat": 34.0834203532099,
        "lng": -118.31392039180909,
        "labeledLatLngs": [
          {
            "label": "display",
            "lat": 34.0834203532099,
            "lng": -118.31392039180909
          }
        ],
        " postalCode": "90038",
        "cc": "US",
        "city": "Los Angeles",
        "state": "CA",
        "country": "United States",
        "formattedAddress": [
          "5210 Melrose Ave (at N Wilton Pl)",
          "Los Angeles, CA 90038",
          "United States"
        ]
      }
    },
    {
      "id": "4b7d83a2f964a5209fc32fe3",
      "name": "THE Blvd",
      "review": "Bathrooms are clean. Staff is friendly. Will pee here again.",
      "location": {
        "address": "9500 Wilshire Blvd",
        "crossStreet": "Beverly Wilshire Hotel",
        "lat": 34.06717824189004,
        "lng": -118.40099046313375,
        "labeledLatLngs": [
          {
            "label": "display",
            "lat": 34.06717824189004,
            "lng": -118.40099046313375
          }
        ],
        " postalCode": "90212",
        "cc": "US",
        "city": "Beverly Hills",
        "state": "CA",
        "country": "United States",
        "formattedAddress": [
          "9500 Wilshire Blvd (Beverly Wilshire Hotel)",
          "Beverly Hills, CA 90212",
          "United States"
        ]
      }
    },
    {
      "id": "597611f135d3fc33731bc9c7",
      "name": "Alfred Coffee {Beverly Hills}",
      "review": "Bathrooms are clean. Staff is friendly. Will pee here again.",
      "location": {
        "address": "490 N Beverly Dr",
        "lat": 34.07161372777794,
        "lng": -118.40345159424801,
        "labeledLatLngs": [
          {
            "label": "display",
            "lat": 34.07161372777794,
            "lng": -118.40345159424801
          }
        ],
        " postalCode": "90210",
        "cc": "US",
        "city": "Beverly Hills",
        "state": "CA",
        "country": "United States",
        "formattedAddress": [
          "490 N Beverly Dr",
          "Beverly Hills, CA 90210",
          "United States"
        ]
      }
    },

    {
      "id": "4a6f218bf964a5205fd51fe3",
      "name": "La Provence Patisserie & Cafe",
      "review": "Bathrooms are clean. Staff is friendly. Will pee here again.",
      "location": {
        "address": "8950 W Olympic Blvd #110",
        "crossStreet": "S La Peer Dr",
        "lat": 34.059267850430544,
        "lng": -118.38727802911762,
        "labeledLatLngs": [
          {
            "label": "display",
            "lat": 34.059267850430544,
            "lng": -118.38727802911762
          }
        ],
        " postalCode": "90211",
        "cc": "US",
        "city": "Beverly Hills",
        "state": "CA",
        "country": "United States",
        "formattedAddress": [
          "8950 W Olympic Blvd #110 (S La Peer Dr)",
          "Beverly Hills, CA 90211",
          "United States"
        ]
      }
    },
    {
      "id": "4a834b01f964a520aafa1fe3",
      "name": "The Coffee Bean & Tea Leaf",
      "review": "Bathrooms are clean. Staff is friendly. Will pee here again.",
      "location": {
        "address": "445 N Beverly Dr",
        "crossStreet": "at S Santa Monica Blvd",
        "lat": 34.070827812088154,
        "lng": -118.40282407154935,
        "labeledLatLngs": [
          {
            "label": "display",
            "lat": 34.070827812088154,
            "lng": -118.40282407154935
          }
        ],
        " postalCode": "90212",
        "cc": "US",
        "city": "Beverly Hills",
        "state": "CA",
        "country": "United States",
        "formattedAddress": [
          "445 N Beverly Dr (at S Santa Monica Blvd)",
          "Beverly Hills, CA 90212",
          "United States"
        ]
      }
    },
    {
      "id": "49ff2664f964a520e46f1fe3",
      "name": "Le Pain Quotid ien",
      "review": "Bathrooms are clean. Staff is friendly. Will pee here again.",
      "location": {
        "address": "9630 Santa Monica Blvd",
        "crossStreet": "btwn Bedford & Camden Dr",
        "lat": 34.069327049277376,
        "lng": -118.40579241514206,
        "labeledLatLngs": [
          {
            "label": "display",
            "lat": 34.069327049277376,
            "lng": -118.40579241514206
          }
        ],
        " postalCode": "90210",
        "cc": "US",
        "city": "Beverly Hills",
        "state": "CA",
        "country": "United States",
        "formattedAddress": [
          "9630 Santa Monica Blvd (btwn Bedford & Camden Dr)",
          "Beverly Hills, CA 90210",
          "United States"
        ]
      }
    },
    {
      "id": "4b5f6fd8f964a52042ba29e3",
      "name": "The Fountain Coffee Room",
      "review": "Bathrooms are clean. Staff is friendly. Will pee here again.",
      "location": {
        "address": "9641 Sunset Blvd",
        "crossStreet": "at The Beverly Hills Hotel",
        "lat": 34.0817957,
        "lng": -118.4133946,
        "labeledLatLngs": [
          {
            "label": "display",
            "lat": 34.0817957,
            "lng": -118.4133946
          }
        ],
        " postalCode": "90210",
        "cc": "US",
        "city": "Beverly Hills",
        "state": "CA",
        "country": "United States",
        "formattedAddress": [
          "9641 Sunset Blvd (at The Beverly Hills Hotel)",
          "Beverly Hills, CA 90210",
          "United States"
        ]
      }
    },
    {
      "id": "5952b9a8234724384f39c6a9",
      "name": "Tarte Tatin Bakery & Cafe",
      "review": "Bathrooms are clean. Staff is friendly. Will pee here again.",
      "location": {
        "address": "200 S Beverly Dr",
        "crossStreet": "Charleville Blvd",
        "lat": 34.06493832814465,
        "lng": -118.39900575834929,
        "labeledLatLngs": [
          {
            "label": "display",
            "lat": 34.06493832814465,
            "lng": -118.39900575834929
          }
        ],
        " postalCode": "90212",
        "cc": "US",
        "city": "Beverly Hills",
        "state": "CA",
        "country": "United States",
        "formattedAddress": [
          "200 S Beverly Dr (Charleville Blvd)",
          "Beverly Hills, CA 90212",
          "United States"
        ]
      }
    },
    {
      "id": "4ab7f84bf964a520a67b20e3",
      "name": "Teuscher Chocolates & Cafe",
      "review": "Bathrooms are clean. Staff is friendly. Will pee here again.",
      "location": {
        "address": "9548 Brighton Way",
        "crossStreet": "at Camden Dr",
        "lat": 34.06844289477853,
        "lng": -118.40398660390103,
        "labeledLatLngs": [
          {
            "label": "display",
            "lat": 34.06844289477853,
            "lng": -118.40398660390103
          }
        ],
        " postalCode": "90210",
        "cc": "US",
        "city": "Beverly Hills",
        "state": "CA",
        "country": "United States",
        "formattedAddress": [
          "9548 Brighton Way (at Camden Dr)",
          "Beverly Hills, CA 90210",
          "United States"
        ]
      }
    },
    {
      "id": "58e6b8280acb6a688ace966a",
      "name": "Cafe Gratitude - Beverly Hills",
      "review": "Bathrooms are clean. Staff is friendly. Will pee here again.",
      "location": {
        "address": "419 N Canon Dr",
        "lat": 34.07095608201384,
        "lng": -118.401344982318,
        "labeledLatLngs": [
          {
            "label": "display",
            "lat": 34.07095608201384,
            "lng": -118.401344982318
          }
        ],
        " postalCode": "90210",
        "cc": "US",
        "city": "Beverly Hills",
        "state": "CA",
        "country": "United States",
        "formattedAddress": [
          "419 N Canon Dr",
          "Beverly Hills, CA 90210",
          "United States"
        ]
      }
    },
    {
      "id": "578428ed498ec5b48cb40b67",
      "name": "Euro Cafe",
      "review": "Bathrooms are clean. Staff is friendly. Will pee here again.",
      "location": {
        "address": "427 N Canon Dr",
        "lat": 34.070965,
        "lng": -118.40172,
        "labeledLatLngs": [
          {
            "label": "display",
            "lat": 34.070965,
            "lng": -118.40172
          }
        ],
        " postalCode": "90210",
        "cc": "US",
        "city": "Beverly Hills",
        "state": "CA",
        "country": "United States",
        "formattedAddress": [
          "427 N Canon Dr",
          "Beverly Hills, CA 90210",
          "United States"
        ]
      }
    },
    {
      "id": "4158a980f964a5203d1d1fe3",
      "name": "Starbucks",
      "review": "Bathrooms are clean. Staff is friendly. Will pee here again.",
      "location": {
        "address": "9811 S. Santa Monica Blvd",
        "crossStreet": "S. Santa Monica Blvd",
        "lat": 34.06674977996581,
        "lng": -118.41033159991521,
        "labeledLatLngs": [
          {
            "label": "display",
            "lat": 34.06674977996581,
            "lng": -118.41033159991521
          }
        ],
        " postalCode": "90210",
        "cc": "US",
        "city": "Beverly Hills",
        "state": "CA",
        "country": "United States",
        "formattedAddress": [
          "9811 S. Santa Monica Blvd (S. Santa Monica Blvd)",
          "Beverly Hills, CA 90210",
          "United States"
        ]
      }
    },
    {
      "id": "4bc8f3e0937ca5930cdda492",
      "name": "SnAKS at Saks Fifth Avenue",
      "review": "Bathrooms are clean. Staff is friendly. Will pee here again.",
      "location": {
        "address": "9600 Wilshire Blvd",
        "crossStreet": "Peck Drive",
        "lat": 34.067147572660446,
        "lng": -118.40394584974216,
        "labeledLatLngs": [
          {
            "label": "display",
            "lat": 34.067147572660446,
            "lng": -118.40394584974216
          }
        ],
        " postalCode": "90212",
        "cc": "US",
        "city": "Beverly Hills",
        "state": "CA",
        "country": "United States",
        "formattedAddress": [
          "9600 Wilshire Blvd (Peck Drive)",
          "Beverly Hills, CA 90212",
          "United States"
        ]
      }
    },
    {
      "id": "4b6c660ef964a520d3362ce3",
      "name": "Roxbury Cafe",
      "review": "Bathrooms are clean. Staff is friendly. Will pee here again.",
      "location": {
        "address": "459 N Roxbury Dr",
        "crossStreet": "at Santa Monica Blvd",
        "lat": 34.068169693720506,
        "lng": -118.40696947945045,
        "labeledLatLngs": [
          {
            "label": "display",
            "lat": 34.068169693720506,
            "lng": -118.40696947945045
          }
        ],
        " postalCode": "90210",
        "cc": "US",
        "city": "Beverly Hills",
        "state": "CA",
        "country": "United States",
        "formattedAddress": [
          "459 N Roxbury Dr (at Santa Monica Blvd)",
          "Beverly Hills, CA 90210",
          "United States"
        ]
      }
    },
    {
      "id": "4dd6a5a4922ef477d2a34974",
      "name": "The Pool Bar & Café at Beverly Wilshire Beverly Hills A Four Seasons Hotel",
      "review": "Bathrooms are clean. Staff is friendly. Will pee here again.",
      "location": {
        "address": "9500 Wilshire Blvd",
        "lat": 34.066051724281095,
        "lng": -118.40050594534996,
        "labeledLatLngs": [
          {
            "label": "display",
            "lat": 34.066051724281095,
            "lng": -118.40050594534996
          }
        ],
        " postalCode": "90212",
        "cc": "US",
        "city": "Beverly Hills",
        "state": "CA",
        "country": "United States",
        "formattedAddress": [
          "9500 Wilshire Blvd",
          "Beverly Hills, CA 90212",
          "United States"
        ]
      }
    },
    {
      "id": "4b311ae2f964a5204a0025e3",
      "name": "Starbucks",
      "review": "Bathrooms are clean. Staff is friendly. Will pee here again.",
      "location": {
        "address": "9049 W Olympic Blvd",
        "lat": 34.059551,
        "lng": -118.389604,
        "labeledLatLngs": [
          {
            "label": "display",
            "lat": 34.059551,
            "lng": -118.389604
          }
        ],
        " postalCode": "90211",
        "cc": "US",
        "city": "Beverly Hills",
        "state": "CA",
        "country": "United States",
        "formattedAddress": [
          "9049 W Olympic Blvd",
          "Beverly Hills, CA 90211",
          "United States"
        ]
      }
    },
    {
      "id": "4afcb040f964a5201b2522e3",
      "name": "Starbucks",
      "review": "Bathrooms are clean. Staff is friendly. Will pee here again.",
      "location": {
        "address": "202 S Beverly Dr",
        "lat": 34.0648217,
        "lng": -118.3988824,
        "labeledLatLngs": [
          {
            "label": "display",
            "lat": 34.0648217,
            "lng": -118.3988824
          }
        ],
        " postalCode": "90212",
        "cc": "US",
        "city": "Beverly Hills",
        "state": "CA",
        "country": "United States",
        "formattedAddress": [
          "202 S Beverly Dr",
          "Beverly Hills, CA 90212",
          "United States"
        ]
      }
    },
    {
      "id": "4a68a7b2f964a520c4ca1fe3",
      "name": "Roni's Diner",
      "review": "Bathrooms are clean. Staff is friendly. Will pee here again.",
      "location": {
        "address": "9911 Santa Monica Blvd",
        "crossStreet": "at Charleville Blvd",
        "lat": 34.06540197248561,
        "lng": -118.4121162948126,
        "labeledLatLngs": [
          {
            "label": "display",
            "lat": 34.06540197248561,
            "lng": -118.4121162948126
          }
        ],
        " postalCode": "90212",
        "cc": "US",
        "city": "Beverly Hills",
        "state": "CA",
        "country": "United States",
        "formattedAddress": [
          "9911 Santa Monica Blvd (at Charleville Blvd)",
          "Beverly Hills, CA 90212",
          "United States"
        ]
      }
    },
    {
      "id": "49d046d0f964a520185b1fe3",
      "name": "Huckleberry Cafe & Bakery",
      "review": "Bathrooms are clean. Staff is friendly. Will pee here again.",
      "location": {
        "address": "1014 Wilshire Blvd",
        "crossStreet": "at 10th Ct",
        "lat": 34.02400201667549,
        "lng": -118.49209543643309,
        "labeledLatLngs": [
          {
            "label": "display",
            "lat": 34.02400201667549,
            "lng": -118.49209543643309
          }
        ],
        " postalCode": "90401",
        "cc": "US",
        "city": "Santa Monica",
        "state": "CA",
        "country": "United States",
        "formattedAddress": [
          "1014 Wilshire Blvd (at 10th Ct)",
          "Santa Monica, CA 90401",
          "United States"
        ]
      }
    },
    {
      "id": "53af17e3498e8de9d6381a9f",
      "name": "Philz Coffee",
      "review": "Bathrooms are clean. Staff is friendly. Will pee here again.",
      "location": {
        "address": "525 Santa Monica Blvd",
        "crossStreet": "btwn 5th & 6th St",
        "lat": 34.017805,
        "lng": -118.493719,
        "labeledLatLngs": [
          {
            "label": "routing",
            "lat": 34.017805,
            "lng": -118.493719
          },
          {
            "      label": "display",
            "lat": 34.017805,
            "lng": -118.493719
          }
        ],
        " postalCode": "90401",
        "cc": "US",
        "city": "Santa Monica",
        "state": "CA",
        "country": "United States",
        "formattedAddress": [
          "525 Santa Monica Blvd (btwn 5th & 6th St)",
          "Santa Monica, CA 90401",
          "United States"
        ]
      }
    },
    {
      "id": "5c0475ee0d2be7002c9c5242",
      "name": "Blue Bottle Coffee",
      "review": "Bathrooms are clean. Staff is friendly. Will pee here again.",
      "location": {
        "address": "2439 Main St",
        "lat": 34.003524,
        "lng": -118.484919,
        "labeledLatLngs": [
          {
            "label": "display",
            "lat": 34.003524,
            "lng": -118.484919
          }
        ],
        " postalCode": "90405",
        "cc": "US",
        "city": "Santa Monica",
        "state": "CA",
        "country": "United States",
        "formattedAddress": [
          "2439 Main St",
          "Santa Monica, CA 90405",
          "United States"
        ]
      }
    },
    {
      "id": "4fff4694d86ca830b838b5cc",
      "name": "Dogtown Coffee",
      "review": "Bathrooms are clean. Staff is friendly. Will pee here again.",
      "location": {
        "address": "2003 Main St",
        "crossStreet": "Bay St.",
        "lat": 34.00712446519118,
        "lng": -118.48872260907154,
        "labeledLatLngs": [
          {
            "label": "display",
            "lat": 34.00712446519118,
            "lng": -118.48872260907154
          }
        ],
        " postalCode": "90405",
        "cc": "US",
        "neighborhood": "Ocean Park",
        "city": "Santa Monica",
        "state": "CA",
        "country": "United States",
        "formattedAddress": [
          "2003 Main St (Bay St.)",
          "Santa Monica, CA 90405",
          "United States"
        ]
      }
    },
    {
      "id": "4b4e222bf964a52067e226e3",
      "name": "Espresso Cielo",
      "review": "Bathrooms are clean. Staff is friendly. Will pee here again.",
      "location": {
        "address": "3101 Main St",
        "crossStreet": "at Marine St",
        "lat": 33.998035818157696,
        "lng": -118.47962346749864,
        "labeledLatLngs": [
          {
            "label": "display",
            "lat": 33.998035818157696,
            "lng": -118.47962346749864
          }
        ],
        " postalCode": "90405",
        "cc": "US",
        "city": "Santa Monica",
        "state": "CA",
        "country": "United States",
        "formattedAddress": [
          "3101 Main St (at Marine St)",
          "Santa Monica, CA 90405",
          "United States"
        ]
      }
    },
    {
      "id": "5154f8fde889ae67b8016eb7",
      "name": "Demitasse",
      "review": "Bathrooms are clean. Staff is friendly. Will pee here again.",
      "location": {
        "address": "1149 3rd St",
        "crossStreet": "Wilshire",
        "lat": 34.01855008724439,
        "lng": -118.49967934185808,
        "labeledLatLngs": [
          {
            "label": "display",
            "lat": 34.01855008724439,
            "lng": -118.49967934185808
          }
        ],
        " postalCode": "90403",
        "cc": "US",
        "city": "Santa Monica",
        "state": "CA",
        "country": "United States",
        "formattedAddress": [
          "1149 3rd St (Wilshire)",
          "Santa Monica, CA 90403",
          "United States"
        ]
      }
    },
    {
      "id": "57ac1165498ee7e60ade54dc",
      "name": "Metropolis Cafe",
      "review": "Bathrooms are clean. Staff is friendly. Will pee here again.",
      "location": {
        "address": "603 Arizona Ave, Santa Monica, CA 90401",
        "crossStreet": "Arizona",
        "lat": 34.019458775927376,
        "lng": -118.49492331900382,
        "labeledLatLngs": [
          {
            "label": "display",
            "lat": 34.019458775927376,
            "lng": -118.49492331900382
          }
        ],
        " postalCode": "90401",
        "cc": "US",
        "city": "Santa Monica",
        "state": "CA",
        "country": "United States",
        "formattedAddress": [
          "603 Arizona Ave, Santa Monica, CA 90401 (Arizona)",
          "Santa Monica, CA 90401",
          "United States"
        ]
      }
    },
    {
      "id": "4a75b745f964a52010e11fe3",
      "name": "The OP Cafe",
      "review": "Bathrooms are clean. Staff is friendly. Will pee here again.",
      "location": {
        "address": "3117 Ocean Park Blvd",
        "crossStreet": "32nd & Ocean Park",
        "lat": 34.02096848726641,
        "lng": -118.45254191978171,
        "labeledLatLngs": [
          {
            "label": "display",
            "lat": 34.02096848726641,
            "lng": -118.45254191978171
          }
        ],
        " postalCode": "90405",
        "cc": "US",
        "neighborhood": "West Los Angeles",
        "city": "Santa Monica",
        "state": "CA",
        "country": "United States",
        "formattedAddress": [
          "3117 Ocean Park Blvd (32nd & Ocean Park)",
          "Santa Monica, CA 90405",
          "United States"
        ]
      }
    },
    {
      "id": "5570c6c9498e40d5a38948c5",
      "name": "Love Coffee Bar",
      "review": "Bathrooms are clean. Staff is friendly. Will pee here again.",
      "location": {
        "address": "1732 Ocean Park Blvd",
        "lat": 34.012923413620484,
        "lng": -118.46590570487145,
        "labeledLatLngs": [
          {
            "label": "display",
            "lat": 34.012923413620484,
            "lng": -118.46590570487145
          }
        ],
        " postalCode": "90405",
        "cc": "US",
        "city": "Santa Monica",
        "state": "CA",
        "country": "United States",
        "formattedAddress": [
          "1732 Ocean Park Blvd",
          "Santa Monica, CA 90405",
          "United States"
        ]
      }
    },
    {
      "id": "53dd128c498ead5222ffd212",
      "name": "Lo/Cal Coffee and Market",
      "review": "Bathrooms are clean. Staff is friendly. Will pee here again.",
      "location": {
        "address": "2214 Pico Blvd",
        "lat": 34.02073747032175,
        "lng": -118.46700798010704,
        "labeledLatLngs": [
          {
            "label": "display",
            "lat": 34.02073747032175,
            "lng": -118.46700798010704
          }
        ],
        " postalCode": "90405",
        "cc": "US",
        "city": "Santa Monca",
        "state": "CA",
        "country": "United States",
        "formattedAddress": [
          "2214 Pico Blvd",
          "Santa Monica, CA 90405",
          "United States"
        ]
      }
    },
    {
      "id": "427ff980f964a520c5211fe3",
      "name": "Bergamot Station Arts Center",
      "review": "Bathrooms are clean. Staff is friendly. Will pee here again.",
      "location": {
        "address": "2525 Michigan Ave",
        "lat": 34.02760305823718,
        "lng": -118.46882908525811,
        "labeledLatLngs": [
          {
            "label": "display",
            "lat": 34.02760305823718,
            "lng": -118.46882908525811
          }
        ],
        " postalCode": "90404",
        "cc": "US",
        "city": "Santa Monca",
        "state": "CA",
        "country": "United States",
        "formattedAddress": [
          "2525 Michigan Ave",
          "Santa Monica, CA 90404",
          "United States"
        ]
      }
    },
    {
      "id": "4c672bd1e75ac92872e9f9da",
      "name": "Caffe Luxxe",
      "review": "Bathrooms are clean. Staff is friendly. Will pee here again.",
      "location": {
        "address": "Brentwood Country Mart",
        "crossStreet": "San Vicente Blvd",
        "lat": 34.04723098122344,
        "lng": -118.49046476115784,
        "labeledLatLngs": [
          {
            "label": "display",
            "lat": 34.04723098122344,
            "lng": -118.49046476115784
          }
        ],
        " postalCode": "90402",
        "cc": "US",
        "city": "Santa Monca",
        "state": "CA",
        "country": "United States",
        "formattedAddress": [
          "Brentwood Country Mart ",
          "Santa Monica, CA 90402",
          "United States"
        ]
      }
    },
    {
      "id": "5ab4a38462420b3209f7511a",
      "name": "Bluestone Lane",
      "review": "Bathrooms are clean. Staff is friendly. Will pee here again.",
      "location": {
        "address": "631 Wilshire Blvd",
        "lat": 34.02144,
        "lng": -118.49591,
        "labeledLatLngs": [
          {
            "label": "display",
            "lat": 34.02144,
            "lng": -118.49591
          }
        ],
        " postalCode": "90401",
        "cc": "US",
        "city": "Santa Monca",
        "state": "CA",
        "country": "United States",
        "formattedAddress": [
          "631 Wilshire Blvd",
          "Santa Monica, CA 90401",
          "United States"
        ]
      }
    },
    {
      "id": "4a7488aaf964a5207bde1fe3",
      "name": "Caffe Luxxe",
      "review": "Bathrooms are clean. Staff is friendly. Will pee here again.",
      "location": {
        "address": "925 Montana Ave",
        "crossStreet": "btwn 9th & 10th St",
        "lat": 34.02899861773448,
        "lng": -118.49932701103607,
        "labeledLatLngs": [
          {
            "label": "display",
            "lat": 34.02899861773448,
            "lng": -118.49932701103607
          }
        ],
        " postalCode": "90403",
        "cc": "US",
        "city": "Santa Monca",
        "state": "CA",
        "country": "United States",
        "formattedAddress": [
          "925 Montana Ave ",
          "Santa Monica, CA 90403",
          "United States"
        ]
      }
    },
    {
      "id": "4a899f8ef964a5208f0820e3",
      "name": "Groundwork Coffee",
      "review": "Bathrooms are clean. Staff is friendly. Will pee here again.",
      "location": {
        "address": "2908 Main St",
        "crossStreet": "at Ashland Ave.",
        "lat": 33.99933245022832,
        "lng": -118.4810464487291,
        "labeledLatLngs": [
          {
            "label": "display",
            "lat": 33.99933245022832,
            "lng": -118.4810464487291
          }
        ],
        " postalCode": "90405",
        "cc": "US",
        "city": "Santa Monca",
        "state": "CA",
        "country": "United States",
        "formattedAddress": [
          "2908 Main St (at Ashland Ave.)",
          "Santa Monica, CA 90405",
          "United States"
        ]
      }
    },
    {
      "id": "4283ee00f964a520d0221fe3",
      "name": "Amelia's Espresso & Panini",
      "review": "Bathrooms are clean. Staff is friendly. Will pee here again.",
      "location": {
        "address": "2645 Main St",
        "crossStreet": "btw Hill and Ocean Park",
        "lat": 34.00167558705549,
        "lng": -118.48308447779046,
        "labeledLatLngs": [
          {
            "label": "display",
            "lat": 34.00167558705549,
            "lng": -118.48308447779046
          }
        ],
        " postalCode": "90405",
        "cc": "US",
        "city": "Santa Monca",
        "state": "CA",
        "country": "United States",
        "formattedAddress": [
          "2645 Main St (btw Hill and Ocean Park)",
          "Santa Monica, CA 90405",
          "United States"
        ]
      }
    },
    {
      "id": "46ec35e3f964a520d64a1fe3",
      "name": "UnUrban Coffee House",
      "review": "Bathrooms are clean. Staff is friendly. Will pee here again.",
      "location": {
        "address": "3301 Pico Blvd",
        "crossStreet": "at Urban Ave",
        "lat": 34.026946438094555,
        "lng": -118.45560215282444,
        "labeledLatLngs": [
          {
            "label": "display",
            "lat": 34.026946438094555,
            "lng": -118.45560215282444
          }
        ],
        " postalCode": "90405",
        "cc": "US",
        "city": "Santa Monca",
        "state": "CA",
        "country": "United States",
        "formattedAddress": [
          "3301 Pico Blvd",
          "Santa Monica, CA 90405",
          "United States"
        ]
      }
    },
    {
      "id": "4af489d6f964a520a0f321e3",
      "name": "Café Crêpe",
      "review": "Bathrooms are clean. Staff is friendly. Will pee here again.",
      "location": {
        "address": "1460 3rd Street Promenade",
        "crossStreet": "at Broadway",
        "lat": 34.01434382526991,
        "lng": -118.49467421130034,
        "labeledLatLngs": [
          {
            "label": "display",
            "lat": 34.01434382526991,
            "lng": -118.49467421130034
          }
        ],
        " postalCode": "90401",
        "cc": "US",
        "city": "Santa Monca",
        "state": "CA",
        "country": "United States",
        "formattedAddress": [
          "1460 3rd Street Promena",
          "Santa Monica, CA 90401",
          "United States"
        ]
      }
    },
    {
      "id": "544e59cc498ee019d1af49d6",
      "name": "Gjusta",
      "review": "Bathrooms are clean. Staff is friendly. Will pee here again.",
      "location": {
        "address": "320 Sunset Ave",
        "lat": 33.99510338284028,
        "lng": -118.47444691981889,
        "labeledLatLngs": [
          {
            "label": "display",
            "lat": 33.99510338284028,
            "lng": -118.47444691981889
          }
        ],
        " postalCode": "90291",
        "cc": "US",
        "city": "Venice",
        "state": "CA",
        "country": "United States",
        "formattedAddress": [
          "320 Sunset Ave",
          "Venice, CA 90291",
          "United States"
        ]
      }
    },
    {
      "id": "560ec97c498e239b1a72f61b",
      "name": "Verve Coffee",
      "review": "Bathrooms are clean. Staff is friendly. Will pee here again.",
      "location": {
        "address": "8051 W 3rd St",
        "crossStreet": "at S Laurel Ave",
        "lat": 34.072395,
        "lng": -118.365025,
        "labeledLatLngs": [
          {
            "label": "display",
            "lat": 34.072395,
            "lng": -118.365025
          }
        ],
        " postalCode": "90048",
        "cc": "US",
        "city": "Los Angels",
        "state": "CA",
        "country": "United States",
        "formattedAddress": [
          "8051 W 3rd St (at S Laurel Ave)",
          "Los Angeles, CA 90048",
          "United States"
        ]
      }
    },
    {
      "id": "5037b4dee4b02b479d3e8dc8",
      "name": "Alfred Coffee & Kitchen",
      "review": "Bathrooms are clean. Staff is friendly. Will pee here again.",
      "location": {
        "address": "8428 Melrose Pl Ste A",
        "crossStreet": "at Croft Ave",
        "lat": 34.08351462099284,
        "lng": -118.37434056202393,
        "labeledLatLngs": [
          {
            "label": "display",
            "lat": 34.08351462099284,
            "lng": -118.37434056202393
          }
        ],
        " postalCode": "90069",
        "cc": "US",
        "city": "Los Angels",
        "state": "CA",
        "country": "United States",
        "formattedAddress": [
          "8428 Melrose Pl Ste A (at Croft Ave)",
          "Los Angeles, CA 90069",
          "United States"
        ]
      }
    }
  ]
}
